icao,name,lat,lon,elev_ft
LIRF,Rome_Fiumicino_Leonardo_da_Vinci_International_Airport,41.804532,12.251998,13
LIMC,Milan_Malpensa_International_Airport,45.6306,8.72811,768
LIPZ,Venice_Marco_Polo_Airport,45.505299,12.3519,7
LIML,Milano_Linate_Airport,45.445099,9.27674,353
LIME,Milan_Bergamo_Airport_/_Antonio_Locatelli_Air_Base,45.670725,9.709223,782
LIRA,Ciampino_G._B._Pastine_International_Airport,41.7994,12.5949,427
LIPE,Bologna_Guglielmo_Marconi_Airport,44.5354,11.2887,123
LIRN,Naples_International_Airport,40.886002,14.2908,294
LIRP,Pisa_International_Airport,43.683899,10.3927,6
LICC,Catania_Fontanarossa_Airport,37.466801,15.0664,39
LIRQ,"Florence_Airport,_Peretola",43.808558,11.202822,142
LICJ,Falcone_Borsellino_Airport,38.175999,13.091,65
LIPH,Treviso_Antonio_Canova_Airport,45.648399,12.1944,59
LIMF,Turin_Airport,45.200802,7.64963,989
LIPX,Verona_Villafranca_Valerio_Catullo_Airport,45.394955,10.887303,239
LIEE,Cagliari_Elmas_Airport,39.251499,9.05428,13
LIEO,Olbia_Costa_Smeralda_Airport,40.898701,9.51763,37
LIBD,Bari_Karol_Wojtyła_International_Airport,41.138901,16.760599,193
LIPQ,Trieste_Friuli_Venezia_Giulia_Airport,45.827499,13.4722,39
LIMJ,Genoa_Cristoforo_Colombo_Airport,44.412039,8.840732,13
LIEA,Alghero_Fertilia_Airport,40.632099,8.29077,87
LIPV,Venice_Lido_Giovanni_Nicelli_Airfield,45.428299,12.3881,15
LIPY,Marche_Airport,43.616299,13.3623,49
LIBR,Brindisi_Airport,40.6576,17.947001,47
LIPR,Federico_Fellini_International_Airport,44.020302,12.6117,40
LICT,Vincenzo_Florio_Airport_Trapani_Birgi,37.9114,12.488,25
LIBP,Abruzzo_Airport,42.431702,14.1811,48
LICA,Lamezia_Terme_Sant'Eufemia_International_Airport,38.905197,16.243762,39
LICZ,Sigonella_Navy_Air_Base,37.401699,14.9224,79
LIPB,Bolzano_Airport,46.460201,11.3264,789
LIRJ,Marina_di_Campo_Airport,42.760871,10.239811,31
LIPK,Forlì_Luigi_Ridolfi_Airport,44.194801,12.0701,97
LIPO,Brescia_Gabriele_d'Annunzio_Airport,45.428902,10.3306,355
LIMP,Parma_Airport,44.826351,10.29705,161
LIRU,Rome_Urbe_Airport,41.952096,12.502231,55
LIMZ,Cuneo_International_Airport,44.547001,7.62322,1267
LIMG,Riviera_Villanova_d'Albenga_International_Airport,44.050598,8.12743,148
LIMA,Torino_Aeritalia_Airport,45.086399,7.60337,943
LIRZ,Perugia_San_Francesco_d'Assisi_Umbria_International_Airport,43.095901,12.5132,697
LICR,Reggio_Calabria_Airport,38.071201,15.6516,96
LIMW,Aosta_Corrado_Gex_Airport,45.738552,7.3683,1791
LICB,Comiso_Airport,36.99583,14.60889,756
LIDT,Trento_Mattarello_Airport,46.0214,11.1242,610
LIMB,Milano_Bresso_Airfield,45.539182,9.202452,484
LIPU,Padova_Gino_Allegri_Airfield,45.395316,11.847124,44
LIQS,Siena_Ampugnano_Airport,43.256302,11.255,634
LIPN,Verona_Boscomantico_Airfield,45.472,10.9279,286
LILH,Voghera_Rivanazzano_Airfield,44.952,9.01653,423
LIED,Decimomannu_Air_Base,39.354198,8.97248,100
LIPA,Aviano_Air_Base,46.031898,12.596503,410
LILE,Biella_Cerrione_Airfield,45.4953,8.10278,920
LIDA,Asiago_Romeo_Sartori_Airfield,45.886155,11.515861,3409
LILO,Caiolo_Sondrio_Airfield,46.154448,9.79507,899
LIDU,Carpi_Budrione_Airfield,44.833231,10.871186,69
LILR,Cremona_Migliaro_Airfield,45.168261,10.001864,161
LIDG,Lugo_Francesco_Baracca_Airfield,44.397476,11.854777,62
LIDE,Reggio_Emilia_Airport,44.697701,10.666031,152
LIET,Tortolì_Airport,39.9188,9.68298,23
LIBC,Crotone_Sant'Anna_Pythagoras_Airport,38.9972,17.0802,522
LIRS,Grosseto_Corrado_Baccarini_Air_Base_Grosseto_Airport,42.759701,11.0719,17
LILM,Casale_Monferrato_Airfield,45.110039,8.456898,377
IT-0113,Litorale_di_Caorle_Airfield,45.611944,12.814722,1
LIDF,Fano_Airfield,43.824032,13.02588,54
LILQ,Massa_Cinquale_Municipal_Airfield,43.98598,10.143785,13
LIRI,Salerno_Costa_d'Amalfi_Airport,40.620399,14.9113,123
LILN,Varese_Venegono_Airport,45.742199,8.888233,1100
LILA,Alessandria_Airfield,44.925635,8.626728,299
LIDR,Ravenna_Airport,44.364291,12.224996,1
LIDB,Belluno_Arturo_dell'Oro_Airport,46.166549,12.250389,1240
LIQL,Lucca_Tassignano_Airport,43.825825,10.577928,39
LIPM,Modena_Marzaglia_Airfield,44.631389,10.808611,184
IT-0001,Il_Falco_Airfield,45.269254,7.950733,768
IT-0087,Guglielmo_Zamboni_Airfield,44.475,11.541664,98
LIQN,Rieti_Airfield,42.4272,12.8517,1278
LIBF,Foggia_Gino_Lisa_Airport,41.433596,15.534566,265
LICD,Lampedusa_Airport,35.497898,12.6181,70
LICG,Pantelleria_Airport,36.816502,11.9689,628
LILI,Vercelli_Airport,45.309935,8.417931,417
LIQB,Arezzo_Molin_Blanco_Airfield,43.455248,11.847393,814
IT-0476,Carzago_Riviera_Airfield,45.516789,10.464759,639
LIPD,Udine_Campoformido_Airfield,46.0308,13.18225,305
LILV,Valbrembo_Airfield,45.719864,9.593954,745
LIVV,Moncucco_Airfield,45.344613,7.919072,781
IT-0194,Santa_Lucia_Airfield,45.483966,9.953184,357
LIPF,Ferrara_San_Luca_Airfield,44.812328,11.613884,20
LIPG,Gorizia_Duca_d'Aosta_Airfield,45.906898,13.5993,207
IT-0221,Montagnana_Airfield,45.245222,11.424673,32
IT-0035,Ivrea_Montalto_Dora_Airfield,45.487546,7.84323,810
LIER,Oristano_Fenosu_Airport,39.895308,8.642661,36
LIDP,Pavullo_Airfield,44.322399,10.8317,2244
IT-0003,San_Sepolcro_Airfield,43.55916,12.155903,1050
LIDH,Thiene_Arturo_Ferrarin_Airfield,45.67783,11.496306,335
LIPI,Udine_Rivolto_Air_Base,45.978699,13.0493,179
LIBV,Gioia_del_Colle_Antonio_Ramirez_Air_Base,40.767799,16.9333,1187
LIPS,Istrana_Air_Base,45.684358,12.087107,137
IT-0108,Le_Merline_Airfield,44.97287,9.479142,300
IT-0307,Dominio_di_Bagnoli_Airfield,45.183946,11.857326,3
IT-0366,Bedizzole_Airfield,45.51851,10.449577,623
IT-0395,Collina_Airfield,43.988371,11.389562,951
IT-0055,Pegasus_2000_Airfield,45.311672,7.665153,1312
IT-0074,Carolina_Airfield,45.253154,7.898977,708
LIAU,Capua_Airport,41.116001,14.178,64
IT-0362,Gragnano_Airfield,45,9.581999,285
IT-0062,Aviosuperficie_Bosio_Guido,44.434208,7.632153,1500
IT-0042,Astigiana_Airfield,44.888806,8.354867,469
IT-0048,Castelnuovo_Don_Bosco_Airfield,45.024444,7.966389,730
IT-0126,Delta_Club_Napoli_Airfield,41.065757,13.962901,10
IT-0373,Serristori_Airfield,43.332567,11.857861,859
IT-0279,Aviosuperficie_Celano,42.05167,13.55722,2234
IT-0112,Volo_Club_Milano_Airfield,45.449444,8.998333,335
IT-0245,Val_Vibrata_Flying_Field,42.809474,13.847142,269
IT-0043,Boglietto_Airfield,44.758611,8.183056,610
IT-0325,Curtatone_City_San_Silvestro_Airfield,45.101547,10.7492,68
IT-0110,Dovera_Airfield,45.380312,9.534945,259
LIDV,Prati_Vecchi_d'Aguscello_Airfield,44.790884,11.671901,20
LIAP,L'Aquila_Preturo_Airport,42.379902,13.3092,2211
IT-0359,Massalengo_Airfield,45.275425,9.482934,239
IT-0238,Delta_Condor_Airfield,43.868758,10.302024,1
IT-0034,Giancarlo_Filippi_Airfield,44.414367,7.811279,1411
IT-0170,Kong_Airfield,45.761969,9.445002,633
IT-0454,Fly_Roma_Airfield,41.884894,12.718286,190
IT-0280,Cesare_Rossi_Airfield,43.102879,13.557816,492
IT-0292,Blue_Devil_Centre_Airfield,45.392393,10.127678,223
IT-0086,La_Comina_Airfield,45.991852,12.65399,200
IT-0004,Eremo_della_Giubiliana_Airfield,36.861287,14.627008,1401
IT-0082,Madonna_di_Loreto_Airfield,43.43913,13.57054,47
IT-0079,La_Speziana_Airfield,45.128536,9.362869,459
LIAA,"Aviosuperficie_""Alvaro_Leonardi""",42.573333,12.584444,374
LILC,Calcinate_del_Pesce_Airfield,45.8097,8.76806,797
IT-0154,Alituscia_Airfield,42.226894,12.119422,1270
LILG,Vergiate_Airfield,45.712633,8.700714,863
LILB,Alzate_Brianza_Airfield,45.769644,9.162333,1260
IT-0472,Leonardo_da_Vinci_Airfield,45.288333,8.8,358
IT-0323,Vallegaffaro_Airfield,44.834414,12.231261,1
LIBN,Lecce_Galatina_Air_Base_Galatina_Fortunato_Cesari_Airport,40.239201,18.133301,156
LIMN,Cameri_Air_Base_,45.529598,8.66922,586
LIPL,Ghedi_Air_Base,45.432551,10.268612,333
LIBG,Taranto_Grottaglie_Marcello_Arlotta_Airport,40.517502,17.4032,215
LICP,Palermo_Boccadifalco_Airport,38.110802,13.3133,345
LIRV,Viterbo_Airport,42.430199,12.0642,992
IT-0038,Aviosuperficie_Acqui_Terme,44.677488,8.50124,430
IT-0146,Cà_del_Conte_Airfield,44.870165,9.938164,
IT-0477,Campo_di_Volo_Delta_Club,41.716433,13.094704,659
IT-0247,Ali_sul_Castello_Airfield,41.063481,16.280887,984
LIAQ,Aquino_Airfield,41.491983,13.719342,361
IT-0569,Batfly_Airfield,41.343401,16.213181,6
IT-0246,AliVara_Airfield,44.227697,9.720077,311
IT-0502,Curtatone_Private_Airfield,45.112207,10.705383,72
IT-0010,Calatabiano_(Aviosuperficie_Angelo_D'Arrigo),37.799561,15.22775,197
LIDW,Luciano_Narder_Airfield,45.6992,12.5431,7
IT-0080,Mazarack_Flying_Field,45.639444,12.943611,
LIAT,Valdera_Airfield,43.592164,10.696294,39
IT-0503,Delta_Team_Lucca_Airfield,43.784226,10.603388,24
IT-0045,Cascina_Colombare_Airfield,45.49611,8.52527,558
IT-0530,Casalfiumanese_Airfield,44.28966,11.625632,
IT-0190,Baialupo_Airfield,45.5529,9.50567,489
IT-0709,Bolgheri_Airfield,43.209663,10.543751,10
IT-0191,L'Elika_Airfield,44.88293,7.56105,
IT-0089,Trasimeno_Airfield,43.136353,12.030371,858
IT-0248,Montecchio_Podere_Santa_Apollonia_Airfield,43.297074,11.906888,810
IT-0304,Base_Bravo_Airfield,45.392864,11.692645,45
IT-0258,Settecrociari_Airfield,44.13595,12.18976,147
IT-0067,Altiporto_Chamois,45.833793,7.618504,5600
LIAL,Sant'Illuminato_Airfield,43.354901,12.21807,984
IT-0211,Al_Casale_Airfield,45.984782,12.923537,148
IT-0462,Cogliate_Airfield,45.639743,9.065963,
IT-0090,Mensanello_Airfield,43.373582,11.123145,621
IT-0340,Delta_Club_Conselice_Airfield,44.541928,11.792177,9
IT-0420,Top_Gun_Airfield,44.682302,10.568648,259
IT-0051,Cumiana_Airfield,44.939043,7.428925,984
IT-0322,Aerlight_Faenza_Airfield,44.334746,11.930103,52
IT-0352,Aviosuperficie_Aviodelta,44.706594,10.249517,524
LINF,Fermano_Airfield,43.22652,13.74252,49
LIDI,Cortina_d'Ampezzo_Sant'Anna_Heliport,46.574099,12.115463,4213
LIAF,Foligno_Airfield,42.9328,12.71237,730
IT-0052,Aviosuperficie_Francavilla_Bisio,44.729868,8.730075,525
IT-0037,Merlo_Romano_Airfield,44.834433,7.363565,1000
IT-0130,Aquile_Randagie_Airfield,45.165629,11.03503,66
IT-0212,"Campo_di_Volo_""Air_Patria""",40.926943,14.061944,100
IT-0252,Delta_Culture_Club_Airfield,44.571111,11.451667,115
IT-0399,Campo_di_Volo_Aliveneta,45.250934,11.036059,75
IT-0101,Aerolight_Marche_Airfield,43.511883,13.191231,328
IT-0176,La_Filanda_Airfield,43.446407,11.673973,
IT-0103,Ali_di_Classe_Airfield,44.323419,12.307577,3
IT-0105,Lyra_34_Airfield,44.500278,11.944444,36
IT-0014,Oasi_dei_Re_Airfield,36.722558,14.774708,128
IT-0049,Chavez_Marini_Airfield,46.134167,8.306333,922
IT-0242,Corte_Airfield,40.107104,18.257618,262
IT-0118,Mezzana_Bigli_Airfield,45.065409,8.835176,
IT-0255,Molinella_Airfield,44.5982,11.656286,22
IT-0406,Fly_Synthesis_Airfield,45.968667,13.23355,167
IT-0451,Campo_di_Volo_Calledro,42.464848,12.428715,190
IT-0150,Francesco_Baracca_Airfield,45.842203,12.193594,269
IT-0186,Aviosuperficie_Ali_Nettuno,41.503775,12.701976,200
IT-0452,ARMA_Airfield,41.464419,12.746515,59
IT-0195,Corry's_Airfield,45.519248,10.380685,541
IT-0171,Piancada_Airfield,45.76417,13.07304,1
IT-0011,Aviosuperficie_Avioclub_Paternò,37.553356,14.884435,377
IT-0044,Beltrutta_Airfield,44.496506,7.722974,1174
IT-0058,Prealpi_Musinè_Airfield,45.124499,7.521442,1106
IT-0056,Alpi_Marittime_Airfield,44.391111,7.725556,1457
IT-0185,Pantano_Airfield,40.56167,15.7599,2625
IT-0057,Aviosuperficie_Piovera,44.935833,8.749333,312
IT-0468,Campo_di_Volo_Avio_Pontina_Fly,41.380947,13.180648,16
IT-0209,Il_Pinguino_Airfield,43.87137,10.94651,141
IT-0071,Sant'Elia_Airfield,44.741963,7.70987,
IT-0534,Rivaltella_Private_Airfield,44.642004,10.591759,
IT-0012,Rinaura_Airfield,37.028647,15.243509,40
IT-0426,Rivoli_Tetti_Neirotti_Airfield,45.046818,7.536461,1000
IT-0379,Rosangeles_Airfield,45.362976,9.017057,360
IT-0005,Aviosuperficie_Bovarella,37.792694,12.845078,656
IT-0085,Samolaco_Airfield,46.234686,9.432771,689
IT-0554,Alta_Langa_Airfield,44.411152,8.120849,627
IT-0129,Caposile_Airfield,45.56529,12.576835,
IT-0064,Campo_di_volo_Ploia,44.884167,8.780833,420
IT-0285,Parco_Livenza_Airfield,45.740274,12.704472,
IT-0620,Locher_Field,46.600776,11.380098,3000
IT-0181,Aliscarlino_Airfield,42.912222,10.816667,9
IT-0319,San_Paolo_Airfield,45.378663,10.037792,131
IT-0461,Groane_Airfield,45.56612,9.109705,
IT-0002,Senigallia_Nord_Airfield,43.738267,13.183208,39
IT-0222,Aviosuperficie_Divinangelo,41.471944,13.023611,10
IT-0256,Aviosuperficie_di_Rubbiano,44.671947,10.060862,518
IT-0390,"Campo_di_Volo_""Delta_Top_Pegaso""",42.224206,11.7948,351
IT-0761,Eurofly_Airfield,45.690507,11.746809,
IT-0394,Punta_Ala_Airfield,42.841916,10.82346,105
IT-0081,Pradelle_Airfield,45.49278,10.119883,341
IT-0387,Aviosuperficie_Delfina,42.842934,12.734494,708
IT-0073,Valsusa_Airfield,45.1125,7.287222,1250
IT-0415,Valeggio_sul_Mincio_Airfield,45.317432,10.708423,
LIDL,Legnago_Airfield,45.129259,11.293344,30
IT-0116,Passo_del_Tonale_Airfield,46.265134,10.600662,6550
IT-0136,Vigarolo_Airfield,45.217533,9.467232,220
IT-0489,Pellicano_Airfield,44.847222,7.562222,813
IT-0275,Arcobaleno_Airfield,44.496944,11.243611,
IT-0807,Vigna_di_Valle,42.0844444,12.2183333,886
IT-0701,Eliossola_Heliport,41.3524,13.44381,187
IT-0702,Ospedale_Civile_Helipad,42.66673,13.71704,961
IT-0704,Protezione_Civile_Valtrigno,41.86637,14.53371,2942
IT-0538,Campo_Volo_SAT_Torino,44.889233,7.680422,
IT-0697,Ceccano_Heliport,41.53391,13.37462,400
IT-0700,Poliambulatorio_di_Ladispoli_Helipad,41.96867,12.08137,29
IT-0703,Ospedale_San_Camillo,41.86757,12.45755,134
IT-0698,Ospedale_di_Sora_Heliport,41.72915,13.6321,1167
IT-0699,Elitaliana_Pegaso_33_Heliport,42.44131,12.05924,984
IT-TQR,San_Domino_Island_Heliport,42.117775,15.490655,
LIPC,Cervia_Air_Base,44.224201,12.3072,18
LIRE,Pratica_Di_Mare_Air_Base,41.654499,12.4452,41
LIRL,Latina_Air_Base,41.5424,12.909,94
LIRM,Grazzanise_Air_Base,41.060799,14.0819,29
LIRG,Guidonia_Air_Base,41.990299,12.7408,289
LIMR,Novi_Ligure_Eugenio_Mossi_Airfield,44.779999,8.78639,607
LIMS,Piacenza_San_Damiano_Air_Base,44.913102,9.723322,456
LIBA,Amendola_Air_Base,41.538443,15.717181,183
LIQW,Sarzana_Luni_Air_Base,44.088001,9.98795,45
IT-0802,Vicenza_Airport,45.573399,11.5295,128
IT-0775,Verolengo_Airstrip,45.18612,7.98596,
IT-0782,Gh._del_Mont_Gelé,45.902684,7.36571,
IT-0783,Ghiacciaio_del_Braoulé_altiporto,45.951132,7.52853,
IT-0784,Nevaio_del_Fallére_altiporto,45.758806,7.189477,
IT-0785,Ghiacciaio_del_Lys,45.917118,7.855349,
IT-0786,Champillon_altiporto,45.850642,7.273913,
IT-0809,Aviovitombola_Ultralight_Strip,43.17619,11.79623,
IT-0681,Aviosuperfice_Tronto,42.89005,13.87096,
IT-0092,Centro_Volo_Campania,40.9515272,14.41188,
IT-0682,CdV_Baia_e_Latina,41.29702,14.27219,
IT-0111,Navigli_Airfield,45.414412,8.895068,374
IT-0155,Acquasparta_Airfield,42.684167,12.552778,
IT-0271,Agnedo_Airfield,46.044722,11.541944,
IT-0241,Aviosuperficie_Agrigento,37.247222,13.654722,167
IT-0019,Campo_di_Volo_Aidone_(cugno),37.432392,14.61525,450
IT-0309,"Aviosuperficie_""Avioclub_Alanno""",42.31458,14.000913,383
IT-0710,Cascina_Rosio_Airfield,45.416086,8.96513,384
IT-0147,Campo_di_Volo_Borgotaro_Albareto,44.464558,9.715806,1450
IT-0270,Al_Canale_Airfield,40.8125,17.233056,1100
IT-0169,Flying_Tigers_Airfield,45.440878,7.937,751
IT-0106,Ali_Filanti_Airfield,44.582222,11.923056,20
IT-0320,AliMatese_Airfield,41.323638,14.363949,370
IT-0263,Tignes_Airfield,46.15401,12.34751,1676
IT-0556,Pianon_Altiport,46.145432,12.42808,3001
IT-0117,Ceraso_Airfield/Aero_Club_I_Templari,40.93769,16.497,1621
IT-0515,Altavillafly_Airfield,40.545833,15.101944,207
IT-0368,"Aviosuperficie_""Amici_del_Volo""",41.676997,13.74285,1217
IT-0499,Pietralata_Flying_Field,39.970654,18.381006,300
IT-0437,Aviosuperficie_Santo_Stefano,42.072262,12.2628,725
IT-0789,Col_di_Rhémes,45.496135,7.05721,
IT-0790,Granta_Pareì_ghiacciaio,45.492637,7.060532,
IT-0791,Gh._de_la_Sassiere,45.496949,7.037968,
IT-0792,Gh._del_Miravidi_breul,45.711963,6.822829,
IT-0793,Gh._del_Léchaud,45.731861,6.816234,
IT-0531,Apricena_Fly_Airfield,41.79806,15.419932,443
IT-0493,Aviosuperficie_Fly_Center,41.5472222,12.6708333,
IT-0145,Il_Fantasma_Arcole_Airfield,45.36,11.294444,56
IT-0357,"Campo_di_Volo_""Air_Ardara""",40.625979,8.868129,734
IT-0198,Reno_Air_Club_Airfield,44.612923,11.324329,125
IT-0527,Corte_Bariani_Airfield,45.033193,11.724132,7
IT-0225,Aviosuperficie_Artena,41.673056,12.845556,649
IT-0514,Vallecamonica_Airfield,45.855901,10.147571,673
IT-0160,Campo_di_Volo_Castel_Caladan,45.461305,9.576677,46
IT-0374,Asolo_Flight_Airfield,45.758333,11.896111,252
IT-0220,Aviosuperficie_Avola_Gallina,36.945287,15.170774,114
IT-0478,Azzanello_Airfield,45.293845,9.919281,159
IT-0159,Campo_di_Volo_Ondalba,44.776117,7.879334,1017
IT-0679,Barbarano_Mossano_Private_Airstrip,45.398029,11.549892,-1
IT-0144,Alla_Colombara_Airiield,45.752853,11.6925,328
IT-0297,Ali_della_Libertà_Airfield,44.516167,11.100083,
IT-0063,Country_Fly_Airfield,44.503056,7.821667,1350
IT-0152,Aviosuperficie_Olivola,41.17751,14.74734,
IT-0402,Al_Ranch_Airfield,45.923428,13.035592,
IT-0781,Beverino_Airfield,44.19713,9.80555,171
IT-0495,Bigarello_Private_Airfield,45.170815,10.929061,70
IT-0028,Cosenza_Airfield,39.525868,16.230087,180
IT-0550,Helibase_Pelikan_1,46.497639,11.30527,
IT-0509,Scortichino_Airfield,44.859083,11.353583,
IT-0311,Campo_di_Volo_Bonsciano,43.355854,12.193534,882
IT-0233,Cà_Virginia_Airfield,43.818795,12.677264,256
IT-0098,Aviosuperficie_Condor,41.415,12.979444,56
IT-0054,Il_Picchio_Airfield,45.708725,8.595706,699
IT-0491,San_Felice_Trichiana_Airfield,46.084723,12.121052,984
IT-0549,Airfield_ASD_Verbano_fly,45.676374,8.486462,
IT-0423,Bracciano_Air_Base,42.0822,12.07459,
IT-0269,Rovasenda_2000_Airfield,45.544351,8.278914,787
IT-0760,Campo_di_volo_S.Elia_(Buccino),40.658381,15.335616,
IT-0336,Aviosuperficie_Loelle,40.5701667,9.3173667,2598
IT-0354,La_Torretta_Airfield,44.993187,10.0599,118
IT-0328,Că_Mantovane_Airfield,45.239484,10.889615,111
IT-0375,San_Marco_Volo_Airfield,45.771043,11.996559,348
IT-0385,Rains_Airfield,41.146,14.338803,97
IT-0542,Casa_Bianca_Model_Airfield,45.466596,10.347943,
IT-0367,Bosco_di_Mezzo_Airfield_(CTCAL),37.1523,14.59928,1306
IT-0686,Aquila_Solitaria_Airfield,37.42709,14.02916,
IT-0250,Valerio_Glorialanza_Airfield,44.376111,9.290278,49
IT-0135,La_Zappaglia_Airfield,45.326746,10.378411,216
IT-0469,Aviosuperficie_La_Celsetta,42.121667,12.360556,722
IT-0551,Delta_Club_Ibis_Airfield,43.022255,10.611618,49
IT-0161,Volo_Molise,41.45948,14.53799,1738
IT-0335,Base_Aerea_Molise,41.474462,14.537457,1669
IT-0091,Termon_Altiport,46.270833,11.025833,2231
IT-0718,Vicari_Airfield,37.800747,13.52314,995
IT-0259,Campogalliano_Airfield,44.70355,10.85416,118
IT-0284,Pegaso_Airfield,45.318282,12.056959,
IT-0184,Arcora_Flying_Field,41.94428,15.04761,
IT-0481,I_Quattro_Cantoni_Airfield,44.803056,11.138333,
IT-0364,Aviosuperficie_Aretusa_Fly,37.03741,15.09536,1012
IT-0072,Val_Triversa_Airfield,44.906894,8.034096,574
IT-0716,Aviosuperficie_Templare_Paestum,40.472649,14.959581,
IT-0121,Oasi_da_Peppe_Airfield,40.452191,15.000098,16
IT-0501,Selva_Negra_Airfield,42.406825,11.396192,
IT-0453,Aviosuperficie_Roma_Nord,42.119945,12.604453,78
IT-0018,Campo_di_Volo_Capo_d'Orlando,38.126421,14.707904,16
IT-0134,Careas_Airfield,45.50668,9.66814,
IT-0069,Airfield_ASD_Carisio_Gliding_Club,45.446617,8.191496,150
IT-0526,ASD_Salento_Fly_Airfield,40.350138,18.061007,60
IT-0013,Aviosuperficie_Minotaurus_e_Medusa,38.049105,14.541306,13
IT-0249,Willy_il_Coyote_Airfield,44.771828,10.832155,88
IT-0290,"Aviosuperficie_""Il_Pratone""",42.093703,13.042332,1893
IT-0287,Banana_Airfield,45.597525,12.30855,6
IT-0425,Aeroteam_Airfield,45.436236,8.577373,
IT-0369,Volo_Leggero_Airfield,45.261776,11.192901,62
IT-0232,Santa_Rita_Airfield,42.75654,13.01628,2900
IT-0138,Air_Folies_Airfield,45.53297,8.90103,558
IT-0179,Sibari_Fly_Airfield,39.757785,16.437453,35
IT-0341,Oasi_Airfield,45.696556,8.826948,980
IT-0254,Cassola_Airfield,45.741308,11.806548,321
IT-0065,Il_Laghetto_Airfield,44.777885,8.13034,450
IT-0496,Campo_di_Volo_Pellizzario,45.2927778,10.4466667,140
IT-0543,Rotocenter_Airfield,43.715296,10.743997,43
IT-0377,Club_Deltasport_Airfield,44.653559,10.991591,
IT-0521,Medole_Airfield,45.339031,10.480944,230
IT-0076,Canavese_Ultralight_Flight_Club,45.358734,7.71929,853
IT-0511,"Aviosuperficie_privata_""La_Ceriella""",45.220143,8.659543,
IT-0174,Ali_Libere,42.829833,12.683383,
IT-0006,Valbelice_Airfield,37.674242,12.774611,541
IT-0436,Aviosuperficie_Antica_Sardegna,39.270695,9.538871,206
IT-0235,Ciannocio_Airfield,43.120848,11.920468,826
IT-0289,Conca_del_Re_Airfield,39.854278,16.19563,2190
IT-0217,VolAvisio_Airfield,46.27888,11.44837,2820
IT-0400,Ali_del_Brenta_Airfield,45.157127,12.110758,1
IT-0410,SCUV_Aero_Club_Valdarno_Airfield,43.528658,11.474759,1131
IT-0210,Aviosuperficie_Pegaso_Flying_Club,41.541847,13.370451,360
IT-0383,Campo_di_Volo_Giovanni_Zaccini,41.560349,13.34412,492
LIQG,Cecina_Airfield,43.2856,10.521183,
IT-0239,Esperti_Airfield,40.47894,17.884616,196
IT-0428,La_Canonica_Airfield,45.635467,12.340599,
IT-0167,Ceresara_Airfield,45.263695,10.582549,138
IT-0075,Cerreto_Castello_Airfield,45.548056,8.161111,1000
IT-0455,Campo_di_Volo_Sangermano,41.991555,12.13791,337
IT-0405,Chiasiellis_Airfield,45.944928,13.208403,118
IT-0401,Gli_Acquilotti_Airfield,45.13805,12.233941,1
IT-0131,Chiusdino_Airfield,43.189768,11.146924,918
IT-0675,Campo_di_Volo_Chiusi_Scalo,42.972564,11.944301,
IT-0517,Titta_Airfield,43.491204,12.2428,
IT-0397,Ali_Friuli_Airfield,46.056493,13.426248,370
IT-0537,CdV_Colibri,42.3008333,12.3797222,
IT-0274,"Aviosuperficie_""Villa_Selva_Air_Park""",42.79277,13.75146,551
IT-0303,La_Fattoria_Airfield,45.291762,12.075799,6
IT-0431,Butterfly_2_Airfield,45.85255,12.45734,52
IT-0494,Il_Gruccione_Airfield,43.605515,10.411837,15
IT-0798,Grillo_Casa_Airfield,43.32607,11.56251,722
IT-0016,Aviosuperficie_Sorvoliamo,37.0084558926,14.5951116085,722
IT-0751,Arca_Bessica_Airfield,45.74325,11.83564,276
IT-0480,Sturaro_Airfield,45.196389,12.068889,10
IT-0268,Banda_Bassotti_Airfield,44.926373,11.051473,36
IT-0132,"CdV_""38_N_Fly_Zone""",37.9458,15.8836,160
IT-0343,Aviosuperficie_Santa_Bruna,42.382873,12.344158,859
IT-0464,Cordovado_Airfield,45.836519,12.892606,39
IT-0475,Aviosuperficie_Corfinio,42.109588,13.84213,1181
IT-0358,Cornegliano_Airfield,45.288819,9.491562,
IT-0332,Campo_di_Volo_Ali_del_Chienti,43.260263,13.518618,390
IT-0050,Cossato_Airfield,45.531909,8.201143,804
IT-0715,Skydive_Iseo_Airfield,45.816298,10.096242,623
IT-0720,Aviosuperficie_Massarotti,37.190835,14.550211,1352
IT-0029,Franca_Airfield,39.189488,16.671496,4393
IT-0299,Creva_Air_Club_Airfield,44.737333,11.183633,29
IT-0424,Mascioni_Airfield,45.899167,8.71735,898
IT-0119,"Aviosuperficie_""Sa_Doda""",39.361731,8.868309,88
IT-0187,Aviosuperficie_Dorgali,40.348344,9.547495,587
IT-0764,Dosolo_Airfield,44.96078,10.63557,69
IT-0032,Il_Grifo_Airfield,38.637255,15.94775,630
IT-0310,"Campo_di_Volo_""Avioclub_Elice""",42.49048,13.995545,262
IT-0262,Empoli_Airstrip,43.725153,10.982175,82
IT-0114,Zampieri_Airfield,46.404329,12.88536,3281
IT-0047,Cascina_Valentino_Airfield,44.69544,7.40242,280
IT-0267,Aviosuperficie_F._Rossi,43.34,12.826944,1348
IT-0757,Alino_Airfield,46.221329,11.169695,1729
IT-0505,Felonica_Airfield,44.966938,11.354105,30
IT-0166,Campo_di_Volo_Alicocco,41.655,13.226389,190
IT-0384,Il_Grifo_Airfield,41.671186,13.278646,
IT-0787,Fabbro_Private_Airstrip,44.79485,11.58911,20
IT-0439,Aviosuperficie_Tucano,42.1324,12.6263,75
IT-0474,Aviosuperficie_Fiano_Romano,42.1447222,12.6333333,98
IT-0768,Balbido_Ultralight_Airfield,46.00909,10.82986,2176
IT-0172,Stella_Airfield,44.95094,11.62722,6
IT-0350,Fly_and_Go_Airfield,41.344754,15.526474,416
IT-0466,Campo_di_Volo_Amyclae,41.314204,13.345913,1
IT-0260,Obiettivo_Volare_Aeroclub,44.889329,10.160223,141
IT-0767,San_Michele_NO11,45.66137,8.48094,912
IT-0408,Pranovi_Airfield,45.371835,12.037153,1
IT-0487,La_Strozza_Airfield,44.894653,11.669125,
IT-0291,Sky_Ufita_Airfield,41.046165,15.121532,1148
LIRH,Frosinone_Air_Base,41.648537,13.294573,
LIAR,Furbara_Air_Base,41.994141,12.013544,21
IT-0435,Ali_Fucecchio_Airfield,43.751529,10.8078,
IT-0471,Aviocaipoli_Airfield,41.891615,12.783311,558
IT-0141,Ali_Venete_Airfield,45.664881,11.807449,164
IT-0473,Gallipoli_Flying_Field,40.015211,18.023823,1
IT-0053,Gattinara_Airfield,45.604341,8.324461,922
IT-0808,Aviosuperficie_Airone,37.113977,14.214206,82
IT-0448,Campo_di_Volo_MedFly,37.1055,14.220061,85
IT-0449,Campo_di_Volo_Club_Aeronautico_Gela,37.11314,14.18929,
IT-0244,Trike_Team_Cormorano,37.0994444,14.17,
IT-0712,Priolo_Airfield,37.07992,14.38008,545
IT-0120,Campo_di_Volo_Sardegna,39.621944,9.101944,1118
IT-0229,Natile_Airfield,40.59059,16.769,974
IT-0483,UFO_Airfield,41.512595,13.283537,301
IT-0766,Azienda_Agricola_Balduit_Giuliano_Airfield,45.73732,13.44837,-9
IT-0009,Avioclub_Ereo_Airfield,37.19222,14.613297,1483
IT-0518,Grave_di_Papadopoli_Jonathan_Field,45.783887,12.316765,141
IT-0440,Aviosuperficie_Grecciano,43.628814,10.482438,6
IT-0156,Terra_del_Sole_Airfield,42.774774,11.15547,50
IT-0264,Grumentum_Airfield,40.27009,15.91363,2007
IT-0163,Sagrantino_Airfield,42.890278,12.533056,900
IT-0312,San_Terenziano_Airfield,42.85723,12.473179,1679
IT-0479,Aviosuperficie_Ali_Umbre,43.27045,12.7422267,
IT-0215,"Campo_di_Volo_""Aligubbio""",43.3173,12.5731,1377
IT-0492,Vraglia_Airfield,44.413209,11.747288,
IT-0223,K_Fly_Flying_Field,41.91128,15.81102,16
IT-0484,Squadra_Avvoltoi_Airfield,45.241525,11.004096,
IT-0780,Rutor_Glacier_Altiport,45.632223,7.005417,10830
IT-0158,Campo_di_Volo_Aerdomus,41.9419444,12.1402778,98
IT-0278,Falcone_Airfield,41.105084,15.876483,495
IT-0513,Le_Prata_Private_Airfield,43.74537,10.404967,10
LINL,Lecce_San_Cataldo_Lepore_Airfield,40.35974,18.297923,59
IT-0206,Fondone_Airfield,40.355883,18.232425,130
IT-0771,Perliera_Airfield,45.05877,11.62267,16
IT-0153,Volturno_Fly_Aviosuperficie,41.1575,14.3669444,63
IT-0261,Achille_Private_Ultralight_Airfield,43.99883,12.10792,
IT-0293,Le_Panizze_Airfield,45.419359,10.557346,337
LIDC,Cà_Negra_Private_Airstrip,45.08608,12.161455,1
IT-0142,Il_Pioniero_Airfield,45.083975,11.663224,36
IT-0208,Maccagno_Airfield,44.423599,7.459128,
IT-0315,Molinella_Airfield,43.122501,12.206919,790
IT-0392,Montemelino_Airfield,43.102464,12.254116,731
IT-0512,Aviosuperficie_Maletto_Fly,37.845756,14.869846,2756
IT-0148,Flying_Buttero_Airfield,42.517352,11.319137,49
IT-0122,Aerotre_Airfield,40.449469,17.623654,256
IT-0409,"Campo_di_Volo_""Maraclub_Icamar""",39.278216,9.25674,288
IT-0214,Peter_Pan_Airfield,42.97183,12.371257,574
IT-0803,Martina_Franca_Air_Force_Base,40.700001,17.333,1467
IT-0306,Padova_Sud_Airfield,45.325086,11.872916,21
IT-0351,Vivoli_Airfield,42.992623,10.806329,196
VB02,Megolo_Airfield,45.996254,8.303132,709
IT-0265,Torre_Sant'Andrea_Airfield,40.247662,18.436303,72
IT-0017,Aviosuperficie_Terranova,37.576624,12.944491,9
IT-0020,Camemi_Airfield,37.263261,14.626579,361
IT-0218,Volopuro_Airfield,45.564089,8.54184,
IT-0533,Ali_dello_Stilaro_Flying_Field,38.424475,16.551869,85
IT-0193,Lucchina_Fly_Club_Airfield,45.321482,8.000236,951
IT-0508,Gsiesertal_/_Valle_di_Casies,46.7657842,12.1556392,
IT-0566,Paretano_Fly_Airfield,40.82218,17.285711,1030
IT-0345,Campo_di_Volo_Montalto_di_Castro,42.362738,11.656572,49
IT-0459,Valcesano_Airfield,43.700078,13.073459,167
IT-0376,Montebelluna_Airfield,45.748181,12.057152,275
IT-0331,Aviosuperficie_Santa_Anna,43.366053,13.457496,393
IT-0314,Campo_di_Volo_Montefalco,42.885358,12.693324,695
IT-0102,Campo_di_Volo_Montefano,43.42075,13.39928,249
IT-0199,Montegaldella_Airfield,45.443407,11.651087,
IT-0243,Fly_Sabina_Airfield,42.116667,12.708056,
IT-0788,Valsamoggia_Braglie_Ultralight_Airfield,44.49545,11.10378,299
IT-0168,"Campo_di_Volo_""Cab_Club""",45.057833,8.066817,764
IT-0685,Musciano_Private_Airstrip,43.66433,10.72981,
IT-0302,AS77_Airfield,45.961084,13.204394,
IT-0443,Costa_del_Monte_Flying_Field,42.733207,13.891703,498
IT-0301,Agriturismo_Turus_Airfield,45.923709,13.541016,177
IT-0561,Santa_Chiara_Airfield,40.320012,17.812786,
IT-0450,"Campo_di_Volo_""Palazzone_di_Narni""",42.536609,12.553635,360
IT-0283,Aviosuperficie_Carocci,42.247516,12.308311,784
IT-0342,Aviosuperficie_Umiltà,42.192111,12.331621,787
IT-0093,Beppe_Rascaglia_Flying_Field,38.515556,15.942222,
IT-0719,Campo_di_Volo_Niscemi_Parisi_(CLNIS),37.163224,14.445664,1224
IT-0370,Pica_Airfield,42.696389,13.916985,246
IT-0711,Aviosuperfice_Eloro,36.85641,15.08021,
IT-0068,Chatelair_Airfield,45.74,7.480556,1500
IT-0282,Campo_di_Volo_Collerotondo,42.289182,13.745423,1345
IT-0498,"Campo_di_Volo_""Girasole_Vola""",39.956667,9.645278,30
IT-0500,Aviosuperficie_La_Smeraldina,41.05793,9.433446,
IT-0272,Aviosuperficie_Costa_d'Argento,42.495016,11.238771,
IT-0333,AliPuglia_Airfield,40.474421,17.609926,344
IT-0516,Linnarta_Airfield,40.412091,9.723621,210
IT-0189,Rivoli_Avro_Airfield,46.233786,13.072443,557
IT-0565,Dune_Airpark,40.794151,17.491959,
IT-0729,Masseria_Antelmi_Private_Airfield,40.775846,17.591987,
IT-0457,Aviosuperficie_Ocria,42.427255,12.457864,147
IT-0677,Ozzano_private_airfield,45.12039,8.35202,
IT-0721,Aviosuperficie_Fly_Team_Paceco_(TPPAC),37.960022,12.615416,217
IT-0024,Campo_di_Volo_Pachino_Fly_Dream,36.726571,15.033717,23
IT-0756,campo_di_volo_Pian_Mune',44.6458,7.244931,4905
IT-0316,Campo_di_Volo_Palosco,45.600679,9.821166,547
IT-0421,Volo_Libero_Carnia_Airfield,46.524053,13.004055,
IT-0388,Panicarola_Airfield,43.064444,12.100556,902
IT-0463,Pasiano_Airfield,45.832273,12.593565,19
IT-0416,Arcadia_Airfield,45.500837,10.789056,
IT-0717,Eagles_Airfield,37.520917,14.846016,361
IT-0407,Fly_Evolution_Flying_Field,45.981982,13.306923,187
IT-0460,Pratello_Airfield,43.55402,10.752517,173
IT-0213,Aviosuperficie_Aliquirra,39.678,9.46299,
IT-0774,Rovigo_Est_Airfield,45.130463,11.97921,7
IT-0438,AliLafer_Airfield,45.033682,9.791865,147
IT-0519,Ali_Piacenza_Airfield,45.030556,9.605556,213
IT-0230,Campo_di_Volo_Pietralunga,43.450539,12.401383,2263
IT-0022,Campo_di_Volo_Marano,37.386467,14.143471,400
IT-0298,Phoenix_Airfield,44.74714,11.34161,39
IT-0770,Evi_Airfield,45.90137,12.13299,486
IT-0763,Il_Pianetto_Airstrip,44.129994,10.395309,1247
IT-0427,Andrea_Bozzo_Airfield,44.863742,7.407068,984
IT-0039,Meggiana_Altiport,45.746092,8.040702,5344
IT-0177,Enrico_Mattei_Airfield,40.431896,16.5538,180
IT-0178,Pisticci_Flying_Field,40.399699,16.636972,
IT-0216,Aviosuperficie_L'Aquila,42.300878,13.517175,1873
IT-0532,Volare_Un_Po_Ultralight_Airfield,45.01642,10.100069,100
IT-0447,Policoro_Saline_Flying_Field,40.216161,16.731721,
IT-0467,Campo_di_Volo_Pontinia_Eagles,41.372995,13.136783,
IT-0125,Campo_di_Volo_Platamona,40.813333,8.470278,26
IT-0349,Verginese_Airfield,44.690633,11.762535,
IT-0419,San_Sisto_di_Poviglio_Airfield,44.847142,10.505501,98
IT-0506,Tabularia_Airfield,44.849794,10.566058,
IT-0403,Always_Airfield,46.133883,13.278224,344
IT-0123,Il_Volo_Airfield,40.421944,8.686667,
IT-0257,Colli_Euganei_Airfield,45.202641,11.793715,13
IT-0133,CdV_Ass.Sp._Parvolo,45.815556,12.752222,16
IT-0140,Pravisdomini_Airfield,45.821769,12.68341,
IT-0504,Mantovana_Airfield,44.726634,8.593727,738
IT-0372,San_Mauro_Airfield,46.068333,13.366883,351
IT-0078,Prosecco_Airfield,45.703333,13.759722,820
IT-0324,Borgo_Castelvecchio_Airfield,43.012021,11.733956,1007
IT-0015,Aviosuperficie_Ramacca,37.390652,14.620249,524
IT-0253,Castellazzo_Airfield,44.683333,10.739722,141
IT-0355,Aviosuperficie_Vallesanta,42.427317,12.805221,1246
IT-0109,Arbuschi_Airfield,45.051392,9.163255,223
IT-0281,Piana_Cinque_Miglia_Airfield,41.879201,14.011133,4127
IT-0356,Giardini_di_Corcolle_Airfield,41.900476,12.741902,324
IT-0444,Roma_East_Airfield,41.914691,12.769538,387
IT-0027,Ali_Calabria_Airfield,38.619653,15.955976,1870
IT-0769,Ronzo_Chienis_Paraglider_Field,45.901945,10.975953,
IT-0203,Rovigo_Airfield,45.031167,11.823667,22
IT-0096,Aviosuperficie_Sabaudia,41.333611,13.021389,66
IT-0485,Cianpioppo_Airfield,45.015766,10.509881,82
IT-0201,Aviosuperficie_del_Sole,40.624425,14.845842,
IT-0353,Campo_di_Volo_Campore,44.827864,10.010782,459
IT-0800,Sant'Anna_di_Saluzzo_Airfield,44.65943,7.45636,981
IT-0801,Ali_sul_Po_Airfield,44.65734,7.44981,991
IT-0305,Da_Domenico_Airfield,45.233379,11.797942,13
IT-0182,San_Felice_Airfield,44.8325,11.120833,90
IT-0128,Fiorano_Wings_Airfield,45.11933,9.705951,
IT-0240,Campo_di_Volo_Monreale,39.583099,8.773265,
LIGT,San_Genesio_Airfield,46.572786,11.307635,4259
IT-0327,Mantova_Nord_Airfield,45.172182,10.858224,75
IT-0205,Gargano_Pilot_Captain_Saverio_Tadesco_Airfield,41.635,15.761667,380
IT-0197,Il_Borro_Airfield,43.536111,11.705,900
IT-0099,"Aviosuperficie_""Tuscania""",42.410446,11.898665,591
IT-0522,Aviosuperficie_Privata_Avielsar,39.498207,9.612477,
IT-0151,Bibione_Airfield,45.669654,13.039451,1
IT-0219,Tuscany_Flight_Airfield,43.695365,10.805435,65
IT-0334,Antares_Aeroclub_Brindisi_Airfield,40.503697,17.964934,167
IT-0286,Skydive_Venice_Airfield,45.700009,12.763909,21
IT-0346,Aviosuperficie_San_Teodoro,40.802484,9.65839,3
IT-0360,Mezzana_Casati_Airfield,45.098258,9.735884,141
IT-0180,Il_Gabbiano_Airfield,43.051711,10.552012,43
IT-0411,Massimo_Costa_Airfield,43.092657,10.556215,111
IT-0097,"Campo_di_Volo_""Fly_Club""",41.10457,14.45698,
IT-0378,Ala_Jonica_Airfield,37.9371,15.320702,235
IT-0442,"Campo_di_Volo_""Air_Country""",42.806283,13.785007,456
IT-0021,Elpifly_Airfield,36.810908,14.544772,220
IT-0317,Fant_Air_Club_Airfield,46.085023,12.068712,925
IT-0226,Villa_Farsetti_Airfield,45.49917,12.03139,22
IT-0313,Santa_Maria_Rossa_Airfield,43.024026,12.387359,570
IT-0236,Policastro_Airfield,40.114874,15.495315,95
IT-0445,Santarcangelo_Airfield,44.030537,12.426701,210
SU01,Campo_di_volo_Porto_Pino,39.012206,8.601758,
IT-0371,Ca'_Quinta_di_Sarego_Airfield,45.432833,11.383333,114
IT-0200,Sassuolo_Airfield,44.571667,10.78,311
IT-0030,Scalea_Airport,39.776188,15.811343,20
IT-0524,Avio_Lao_Airfield,39.780488,15.805818,10
IT-0497,AvioSciacca_Airfield,37.528056,13.003611,200
IT-0318,Sedico_Airfield,46.091613,12.089596,961
IT-0204,Sasso_d'Oro_Agrotourism_Airfield,46.181389,12.8225,780
IT-0413,Aviosuperficie_del_Parteolla,39.400471,9.139151,433
IT-0507,Oasi_del_Volo_Airfield,39.407537,9.174867,
IT-0683,Serra_de'_Conti_Airfield,43.55993,13.01976,385
IT-0008,Campo_di_Volo_AvioClub_Centro_Sicilia,37.450962,13.923111,
IT-0251,San_Dalmazio_Airfield,44.4125,10.843611,1870
IT-0095,Umberto_Nobile_Airfield,41.235278,13.820556,22
IT-0339,Gli_Aironi_Airfield,44.462771,11.789613,22
IT-0398,Aviosuperficie_Amici_dell'Aria,39.327868,9.146871,472
IT-0031,Dragons_Fly_Airfield,39.738536,16.457015,16
IT-0414,"Aviosuperficie_""La_Tana_del_Volo""",39.269133,8.771811,272
IT-0234,Valdichiana_Airfield,43.214021,11.823111,810
IT-0380,Ulcor_Airfield,39.9787,8.6792,157
IT-0482,Campo_di_Volo_Carzeto,44.96,10.1838889,20
IT-0100,Aviosuperficie_Alisoriano,42.433658,12.292147,985
IT-0192,Le_Streghe_Airfield,45.394518,8.706932,410
IT-0429,Albatros_Airfield,45.770727,12.244068,164
IT-0175,Aviosuperficie_Stintino,40.88295,8.25418,
IT-0157,Ali_del_Po_Private_Airfield,44.971119,10.294275,92
IT-0094,Masseria_Macri_Airfield,40.054607,18.214738,351
IT-0266,Aviosuperficie_Valicella,42.21873,12.24846,862
IT-0137,La_Fenice_Airfield,44.999883,10.713286,66
IT-0224,Monticchio_Airfield,40.377022,17.386017,124
IT-0391,Tarquinia_San_Giorgio_Airfield,42.192687,11.724573,1
IT-0025,Albatros_Airfield,37.972478,13.77335,
IT-0183,Molise_Ultravolo_Airfield,41.97547,15.02005,3
IT-0488,Francesco_Cantelmo_Airfield,42.488611,11.798611,
IT-0188,Campo_di_Volo_Thiesi,40.53542,8.6055,
IT-0231,Campo_di_Volo_Cavola,44.39646,10.53613,1768
LIVD,Dobbiaco_Toblach_Airstrip,46.727021,12.230723,4068
IT-0207,Pantalla_Airfield,42.871082,12.384741,486
IT-0330,"Campo_di_Volo_""Condor_Men""",43.224706,13.329554,629
IT-0088,Monti_della_Tolfa_Airfield,42.0188,11.9827,46
IT-0124,La_Quercia_Airfield,40.963053,16.633016,1181
IT-0300,Punto_Volo_Airfield,45.437917,9.607472,301
IT-0456,Alfina_Airfield,42.739667,11.983333,1811
IT-0811,Campovolo_Bellamarinafly,40.524149,17.774945,290
IT-0059,Città_di_Tortona_Airfield,44.938436,8.865881,315
IT-0777,Campo_Volo_Trens,46.873657,11.472973,
IT-0490,Aviosuperficie_Torre_Foghe,40.1833333,8.4694444,295
IT-0149,Le_Tartarughe_Volanti_Airfield,45.609722,9.486667,646
IT-0338,Pista_Vasa_Airfield,41.046634,8.997749,600
IT-0173,Ultralight_Friuli_Airfield,45.93098,13.362,
IT-0344,Campo_di_Volo_Poggio_Primavera,42.366412,11.796702,485
IT-0382,Faco_Fly,39.894733,18.189937,323
IT-0434,L'Airone_Airfield,45.152733,8.655217,338
IT-0337,Campo_di_Volo_Valledoria,40.929768,8.812227,29
IT-0381,Campo_di_Volo_Vallermosa,39.3561,8.7919,235
IT-0470,Valmontone_Airfield,41.765562,12.864436,1158
IT-0040,Marc_Ingegno_Airfield,45.778056,8.268611,1411
IT-0321,Vasto_Flying_Field,42.155381,14.699362,197
IT-0202,Venaria_Reale_Mario_Santi_Airfield,45.130127,7.612008,
IT-0441,Campiglia_Airfield,43.019437,10.594659,16
IT-0084,Vervò_Airfield,46.313801,11.111898,3080
IT-0228,Gianni_Cerutti_Airfield,45.34921,8.64632,393
IT-0165,Renzo_Storai_Airfield,43.96583,11.458056,889
IT-0143,"Aviosuperficie_""San_Giuseppe""",45.85649,12.06555,419
IT-0107,Icaro_Village_Airfield,44.842996,11.485068,66
IT-0083,La_Tomasina_Airfield,45.328903,8.797781,
IT-0196,Natale/Battistoni_Airfield,45.334957,8.824167,357
IT-0613,Casera_Razzo_Altiport,46.476822,12.614758,5766
IT-0041,Angiale_Airfield,44.833611,7.530556,843
IT-0104,Villafranca_Airfield,44.291111,12.026111,100
IT-0115,Sterzing_/_Vipiteno_Airfield,46.883764,11.441338,3116
IT-0162,Aviosuperficie_Blue_Silo,45.8872222,12.6277778,31
IT-0430,Dream_Fly_Airfield,45.930381,12.257512,
IT-0277,Aviosuperficie_La_Selva,41.155556,14.21,196
IT-0276,"Campo_di_Volo_""Ali_del_Montello""",45.76157,12.16361,226
IT-0273,Giuliano_Borgonovi_Airfield,45.187103,9.042821,203
IT-0365,Aviosuperficie_Chiusa_Zerfaliu,39.989504,8.723266,190
IT-0540,Celenza_Valfortore_Heliport,41.564832,14.998817,
IT-0571,Campo_di_volo_Marchese,41.407394,15.29284,
IT-0577,Eliporto_Isola_di_S.Nicola,42.124193,15.510389,
IT-0606,Eliporto_di_mergenza_ospedale_antonio_perrino,40.625189,17.915654,
IT-0536,Eliporto_di_Gela,37.066235,14.282138,
IT-0535,Eliporto_di_Lanusei,39.890822,9.50585,
IT-0690,Elisuperficie_Arturo_Santi,44.664704,8.298604,
IT-0687,Eliporto_Imperia,43.8842,8.028549,
IT-0776,San_Rossore_Helicopter_Base,43.72172,10.33768,
IT-0597,F._Miulli_Regional_General_Hospital_Heliport,40.864627,16.801482,1230
IT-0708,Luxottica_Heliport,46.278961,12.030839,
IT-0552,Villa_Las_Tronas_Helipad,40.549793,8.317852,
IT-0652,Alicudi_Porto_Heliport,38.532211,14.359827,
IT-0586,Elisuperficie_Ceraso,40.938208,16.495076,
IT-0588,Elisuperficie_di_emergenza,40.9009,16.620909,
IT-0589,Murgia_Fabio_Perinei_Hospital_Heliport,40.819719,16.470718,1329
IT-0660,Anacapri_Heliport,40.558608,14.201355,
LIKA,Arco_Hospital_Helipad,45.919477,10.874897,426
IT-0295,Air_Service_Center,45.06828,9.37491,
IT-0689,Elisuperficie_Pennile_di_Sotto,42.8561,13.596429,
IT-0623,Castelluccio_Airfield,41.319914,15.544642,
IT-0007,Campo_di_Volo_Assoro,37.56181,14.496374,237
IT-0590,Bari_Guardia_di_Finanza_Heliport,41.138072,16.775689,
IT-0591,Bari_Fire_Department_Heliport,41.134553,16.760974,
IT-0592,Bari_Police_Heliport,41.134322,16.760116,
IT-0593,Bari_Carabinieri_Heliport,41.137914,16.781691,
IT-0594,Bari_Coast_Guard_Heliport,41.137947,16.847497,
IT-0595,Bari_Hospital_Heliport,41.112923,16.85809,
IT-0596,Vitrani_Barracks_Heliport,41.096667,16.87962,82
IT-0584,Eliporto_di_emergenza,41.314728,16.253457,
IT-0754,San_Martino_Hospital_Heliport,46.138985,12.200123,1300
IT-0691,Heliport_Colli_di_san_fermo,45.743134,9.940835,
IT-0582,Incoronata_Industrial_Zone_Heliport,41.424363,15.639565,184
IT-0749,Borgosesia_Hospital_Heliport,45.712414,8.263298,1237
IT-0705,Bormio_Heliport,46.454484,10.365125,3848
IT-0607,Eliporto_Leanorado_SPA_confindustria,40.673331,17.921813,
IT-0805,Cerrina_Airfield,45.005,7.492778,
IT-0026,Campo_di_Volo_Ali_Val_di_Neto,39.184793,17.107129,32
IT-0308,"Campo_di_Volo_""Le_Risare""",45.574906,11.84464,78
IT-0622,Canne_Airfield,41.932778,15.070556,
IT-0629,Madna_Airfield,41.922778,15.075278,
IT-0631,Ramitelli_Airfield,41.908333,15.116667,
IT-0393,Ali_sul_Graticolato_Airfield,45.558333,11.973889,59
IT-0680,Pantanella_Air_Base,41.136989,15.920187,
IT-0672,Capraia_Heliport,43.046217,9.844325,
IT-0417,Aviosuperficie_Coraine,45.588562,10.755719,
IT-0555,L'Airone_Airfield,40.972203,16.909364,673
IT-0663,Ischia_Casamicciola_Terme_Heliport,40.750963,13.898701,
LIDK,Casarsa_della_Delizia_Air_Base,45.953167,12.816717,125
IT-0033,Castel_Gandolfo_Heliport,41.732928,12.658055,
IT-0598,Heliport_Castellana_grotte,40.883284,17.148167,
IT-0060,Aviosuperficie_Valentino,44.437222,7.660556,1457
LIAO,Il_Ciocco_Heliport,44.088304,10.467169,1351
IT-0520,Silvia_Giovanni_Airfield,45.263771,10.533114,151
IT-0583,Presidio_Giuseppe_Tatarella_Hospital_Heliport,41.272728,15.917643,325
IT-0625,Cerignola_Airfield,41.242339,15.80525,
IT-0626,Giulia_Airfield,41.304167,15.841667,
IT-0633,San_Giovanni_Airfield,41.239417,15.801825,
IT-0639,Torretto_Airfield,41.181944,15.763889,
IT-0070,Malabaila_Airfield,44.678889,7.818611,935
IT-0077,Fly_Igor_Airfield,45.296717,8.007317,950
LIKC,Valli_del_Noce_Hospital_Helipad,46.360608,11.033396,2138
LILS,Clusone_Heliport,45.883888244628900,9.966388702392580,1900
IT-0735,Codera_Heliport,46.23743,9.472632,2657
IT-0486,Campo_di_Volo_Corbetta,44.807691,12.105863,6
IT-0465,Albatros_Airfield,43.754752,12.954763,164
IT-0539,Elisoccorso_Provincia_di_Como,45.771878,9.043403,
LILY,Como_(Idroscalo___Water_Ad)_Hidroport,45.814701,9.06972,663
IT-0363,Il_Gabbione_Airfield,44.50326,11.81415,9
IT-0559,Condor_Airfield,40.242373,18.034055,118
IT-0389,"Aviosuperficie_""Bore_di_Chienti""",43.261156,13.563302,200
IT-0528,Dune_Aeroclub_Città_Bianca_Francesco_Santoro_Airfield,40.772189,17.637754,
IT-0046,Cascina_Grecia_Airfield,45.353622,7.792997,354
IT-0558,Campo_di_volo_Cutrofiano,40.102031,18.243635,
IT-0727,Desenzano_del_Garda_Seaplane_Base,45.464657,10.555984,
IT-0740,Edolo_Heliport,46.173812,10.334809,2175
IT-0616,Helipad_Masseria_del_Cardinale,40.801994,17.443864,
IT-0654,Isola_Formica_Heliport,37.989091,12.424335,
IT-0655,Levanzo_Heliport,37.992772,12.338437,
IT-0656,Marettimo_Heliport,37.970069,12.070802,
IT-0657,Favignana_Heliport,37.914543,12.318392,
IT-0772,Sant'Anna_Hospital_Heliport,44.80066,11.69987,10
IT-0651,Filicudi_Porto_Heliport,38.557854,14.582586,
IT-0572,Alidaunia_Foggia_Heliport,41.423977,15.533971,278
IT-0570,Orta_Nova_Borgo_Mezzanone_Air_Base,41.40601,15.728517,124
IT-0624,Celone_Airfield,41.551111,15.558889,
IT-0640,Tortorella_Airfield,41.484722,15.652778,
IT-0779,Riuniti_Foggia_Hospital_Heliport,41.45888,15.52023,285
IT-0673,Follonica_Heliport,42.920684,10.764557,
IT-0738,Fraciscio_Heliport,46.40492,9.3642,4423
IT-0609,Heliport_Military,40.244985,18.136781,
IT-0750,Cascina_Costa_Agusta_Heliport,45.632557,8.740717,722
IT-0541,Aviosuperficie_Santa_Lucia,42.3583333,12.4277778,
IT-0611,Gallipoli_Heliport,40.056785,17.982012,
IT-0612,Heliport_turistic_gallipoli,40.023905,18.022041,
IT-0618,Helipad__Salento_Helicopters,40.067439,18.002,
IT-0674,Gorgona_Heliport,43.425819,9.900663,
IT-0546,Helibase_Pegaso_1_(Santa_Maria_Annunziata_Hospital),43.730732,11.304224,
IT-0733,Moriggia_Pelascini_Hospital_Heliport,46.14063,9.30167,699
IT-0602,Eliporto_di_Grottaglie,40.520956,17.39846,
IT-0603,Eliporto_militare_marina_italiana,40.515606,17.408025,
LIAG,Colacem_Heliport,43.341513,12.576869,1532
IT-0296,Elio_Zambrini_Airfield,44.432333,11.71815,
IT-0510,Amanti_Volo_Ultraleggero_Airfield,44.326615,11.659263,
IT-0575,Giannutri_Airfield,42.254584,11.116147,46
IT-0576,Giannutri_Heliport,42.25347,11.100215,
IT-0668,Giglio_Heliport,42.365898,10.913201,
IT-0744,Palmanova_Hospital_Heliport,45.90961,13.33654,92
IT-0694,Ospedale_di_Jesolo_Helipad,45.509314,12.658936,
IT-0560,La_Fenice_Airfield,40.37743,18.11183,171
IT-0627,Lesina_Airfield,41.863333,15.311389,
IT-0621,Biferno_Airfield,41.964724,15.054531,
IT-0714,Versilia_Hospital_Heliport,43.91513,10.221968,9
IT-0659,Linosa_Heliport,35.862175,12.856205,
IT-0647,Lipari_City_Hospital_Helipad,38.462267,14.953542,
IT-0732,Livigno_Heliport,46.51764,10.12533,6083
IT-0294,Aviosuperficie_di_Lonato,45.394566,10.566931,
IT-0628,Lucera_Airfield,41.497978,15.419444,
IT-0632,Salsola_Airfield,41.548333,15.4575,
IT-0643,Vincenzo_Airfield,41.411111,15.424444,
IT-0730,Madesimo_Heliport,46.443232,9.363838,5259
IT-0646,Malfa_Heliport,38.579772,14.827852,
IT-0605,Eliporto_aereotre,40.448041,17.622639,
IT-0778,Manduria_Airfield,40.44383,17.63002,285
IT-0723,Idroscalo_di_Manfredonia,41.618622,15.914007,
IT-0630,Pantanella_Airfield,41.495833,15.791667,
IT-0804,Mantova_Airport,45.135834,10.794444,57
IT-0758,Maratea_Hospital_Heliport,39.998792,15.719108,709
IT-0671,Monte_Capanne_Heliport,42.771589,10.168214,3268
IT-0743,Marcon_Airfield,45.565275,12.322812,
LIBH,Marina_di_Ginosa_Heliport,40.424107,16.887501,26
IT-0726,Idrosuperficie_di_Marone,45.741289,10.091254,
IT-0418,Marradi_Fire_Brigade_Helipad,44.089273,11.634656,
IT-0617,Helipad_military,40.643136,17.206854,
IT-0707,Madonna_delle_Grazie_Hospital_Heliport,40.653055,16.613965,1201
IT-0361,Villa_Fontana_Airfield,44.51585,11.59218,56
IT-0610,Melendugno_Heliport,40.246606,18.436303,
IT-0547,Elipadana_Heliport,45.488697,9.196184,
IT-0753,Solbiate_Olona_Heliport,45.643085,8.854013,804
IT-0619,San_Raffaele_Hospital_Heliport,45.504324,9.260273,
IT-0773,San_Polo_Hospital_Heliport,45.815,13.52087,26
IT-0599,Eliporto_il_Melograno,40.922345,17.276983,
IT-0615,Helipad_Paretano,40.822761,17.283141,
IT-0722,Campo_Volo_Costa_D'argento,42.430624,11.190423,
LIAY,La_Bagnara_Heliport,41.687128,13.499367,1501
IT-0164,AIRBAS_Airfield,40.564519,16.592997,213
IT-0731,Montespluga_Heliport,46.48898,9.33744,6253
IT-0326,Zagavia_Airfield,45.359762,10.65676,512
IT-0608,Sant'anna_Heliport,40.322856,17.824973,177
IT-0724,Idroscalo_di_Santa_Maria_al_Bagno,40.128704,17.994586,
IT-0404,I_Grifoni_Airfield,45.910358,13.371978,95
IT-0734,Novate_Heliport,46.21449,9.45288,748
IT-0139,Aviosuperficie_Airone,45.588056,9.003751,
IT-0684,Ortona_Heliport,42.327173,14.37252,
LIAJ,Macchiarella_Heliport,41.782953,12.306502,4
IT-0604,Eliporto_le_dune,40.771296,17.637691,
IT-0557,Torre_S._Emiliano_Airfield,40.110195,18.49072,
IT-0614,Otranto_Helicopter_Base,40.115959,18.499753,
IT-0745,Padua_Hospital_Helipad,45.401134,11.891772,56
IT-0648,Panarea_South_Heliport,38.630278,15.070763,
IT-0649,Air_Panarea_Heliport,38.645999,15.07075,
IT-0574,Eliporto_Peschici,41.92814,16.012815,
IT-0348,Aviosuperficie_Cà_Lunga,44.520924,8.188011,1175
IT-0288,Il_Ranch_Airfield,45.545833,11.761944,56
IT-0412,Condor_Airfield,42.969167,10.619722,10
IT-0446,Policoro_Airfield,40.170967,16.6628,
IT-0567,Polignano_Fly_Airfield,41.009256,17.177493,85
IT-0755,Pontives_Heliport,46.586877,11.630389,3631
IT-0666,Ponza_Heliport,40.899427,12.948195,
IT-0667,Palmarola_Helipad,40.939667,12.855194,
IT-0669,Portoferraio_Hospital_Heliport,42.815918,10.319657,
IT-0545,Eliporto_Giorgio_La_Pira,36.718499,14.826982,
IT-0227,Campo_di_Volo_Pozzilli,41.50223,14.08533,
IT-0662,Procida_Heliport,40.750172,14.013681,
IT-0678,ENI_Heliport,44.477006,12.271869,
IT-0693,Fiera_di_Rimini_Heliport,44.072447,12.519082,
IT-0692,Rimini_Infermi_Hospital_Heliport,44.045695,12.58963,3
IT-0670,Palmaiola_Heliport,42.865709,10.473906,
IT-0329,Aviosuperficie_Settefrati,45.201775,10.662813,
IT-0061,Capitalia_Heliport,41.824691,12.381729,116
LIRC,Centocelle_Heliport,41.8729,12.5637,158
IT-0548,Fonte_di_Papa_Heliport,42.047787,12.568338,
IT-0752,Chiesa_del_Presidio_Heliport,41.801993,12.498981,190
IT-0347,Campo_di_Volo_Rovellasca,45.675833,9.064444,
IT-0568,Masseria_Modesti_Airfield,40.988856,16.407877,1575
IT-0578,Elifly_International,45.906061,10.22406,
IT-0799,Croce_Verde_di_Saluzzo_Heliport,44.65254,7.46928,1020
IT-0688,San_Benedetto_del_Tronto_Heliport,42.923231,13.889487,
IT-0765,Icaro_Airfield,45.67365,12.39375,10
IT-0737,Truzzo_Heliport,46.358881,9.319786,6595
IT-0573,Eliporto_S.G.Rotondo,41.693749,15.710771,1801
IT-0553,San_Leo_Heliport,43.896713,12.350816,
IT-0806,San_Leo_Airfield,43.918255,12.319971,
IT-0797,Torremezzo_di_Falconara_Airfield,39.28182,16.05505,16
IT-0523,San_Pancrazio_Air_Base,40.437947,17.857062,
IT-0564,Area_51_San_Pietro_Vernotico_Airfield,40.5306,18.053026,52
IT-0433,Deltaland_Airfield,44.8714,10.9807,46
IT-0581,Eliporto,41.632838,15.389813,
IT-0634,San_Severo_Airfield,41.7125,15.43,
IT-0641,Triolo_Airfield,41.625,15.458333,
IT-0736,Mese_Valchiavenna_Heliport,46.31269,9.38766,1005
IT-0696,Heliport_la_Sunrisa,40.714484,14.526114,
IT-0432,"Aviosuperficie_""Val_Vibrata_2""",42.80427,13.794678,433
IT-0023,"Campo_di_Volo_""Il_Cherubino""",37.59441,14.880252,720
IT-0396,Dedalo_Airfield,42.92801,10.840792,
IT-0422,Pajaro_Loco_Airfield,45.867979,12.792206,197
IT-0544,Eliporto_di_Siracusa_Pantanelli,37.061536,15.267566,
IT-0741,Sondalo_Heliport,46.3335,10.33147,3337
IT-0739,Sondrio_City_Hospital_Heliport,46.17158,9.879853,
IT-0661,HeliSorrento_Heliport,40.614109,14.362,
IT-0636,Spinazzola_Airfield,40.949167,16.229444,
IT-0638,Stornara_Airfield,41.290108,15.740617,
IT-0650,Stromboli_Heliport,38.799552,15.240425,
IT-0036,Cassibile_Airfield,36.981791,15.239755,58
IT-0600,Eliporto_militare,40.447845,17.252242,
IT-0601,Eliporto_militare,40.469739,17.27628,
IT-0725,Idroscalo_di_Taranto,40.477113,17.225393,
IT-0237,Teggiano_Vallo_di_Diano_Airfield,40.415506,15.536688,1467
IT-0706,Elimast_Temù_Heliport,46.25121,10.4876,3910
IT-0728,Ternate_Seaplane_Base,45.779714,8.694788,
IT-0742,Tirano_Heliport,46.21887,10.18223,1591
IT-0587,Elisuperficie_la_Quercia,40.963263,16.632791,
IT-0562,Porto_Cesareo_Airfield,40.292833,17.834566,33
IT-0563,Area_51_Torre_Santa_Susanna_Airfield,40.503056,17.7625,285
IT-0637,Sterparone_Airfield,41.601744,15.306667,
IT-0585,Eliporto_Militare,41.253178,16.413456,
IT-0658,Trapani_Chinisia_Airport_/_Borizzo_Airfield,37.896458,12.53907,
IT-0762,Alicusa,37.612908,12.700109,
IT-0676,SUEM_Heliport_Treviso,45.655348,12.263585,
IT-0747,Cattinara_Hospital_Heliport,45.632895,13.830104,845
IT-0525,Lingotto_Heliport,45.030898,7.664602,
IT-0653,Ustica_Heliport,38.707215,13.177478,
LIMH,Pian_Rosà_Heliport,45.933422,7.709344,11443
IT-0635,Sinello_Airfield,42.173611,14.6625,
IT-0759,Heli_Pisa_North,43.78001,10.33434,
IT-0746,Santi_Giovanni_&_Paolo_Civil_Hospital_Helipad,45.440485,12.344561,95
IT-0748,Mirano_Hospital_Heliport,45.500707,12.113037,26
IT-0642,Venosa_Airfield,40.997028,15.873611,
IT-0664,Santo_Stefano_Heliport,40.789318,13.453112,
IT-0665,Ventotene_Heliport,40.800864,13.430235,
IT-0458,Naviglio_Grande_Airfield,45.397222,8.97,370
IT-0066,Campo_Volo_Angela_e_Sara,45.163889,8.123333,427
IT-0713,Campo_d'Aviazone_Private_Heliport,43.862432,10.255292,
LIBJ,"Helicopter_Base_""Luigi_Razza""",38.640456,16.042989,
IT-0810,San_Bortolo_Hospital_Helipad,45.555299,11.544907,180
IT-0579,Eliporto_Vico_del_Gargano,41.894802,15.964009,
IT-0580,Eliporto_Militare_Jactenente,41.821111,15.987275,
VIF,Vieste_Heliport,41.866417,16.165116,14
IT-0386,Volo_Club_Falchi_Grigi,41.9101,16.0993,98
IT-0695,Police_Helipad,44.048416,8.132994,
IT-0529,Base_elicotteri_corpo_forestale_di_Villasalto,39.479449,9.385912,
IT-0645,Vulcano_Heliport,38.428187,14.95568,
IT-0644,Vulcano_Piano_Emergency_Heliport,38.382709,14.982693,
IT-0796,Matera_Heliport,40.67337,16.54763,735